City_ID,City,Country,Lat,Lng,Max Temp,Humidity,Cloudiness,Wind Speed,Current Description
0,Busselton,AU,-33.65,115.3333,62.01,65,97,13.02,overcast clouds
1,Hami,CN,42.8,93.45,79.25,11,0,2.82,clear sky
2,Ushuaia,AR,-54.8,-68.3,37.06,87,100,26.46,light intensity drizzle
3,Qaanaaq,GL,77.484,-69.3632,24.89,83,41,8.66,scattered clouds
4,Sainte-Maxime,FR,43.3,6.6333,69.82,35,24,30.11,few clouds
5,Esperance,AU,-33.8667,121.9,62.91,63,14,15.41,few clouds
6,Gisborne,NZ,-38.6533,178.0042,52.93,79,92,8.23,overcast clouds
7,Bathsheba,BB,13.2167,-59.5167,83.01,83,40,17.27,scattered clouds
8,Albany,US,42.6001,-73.9662,52.66,89,83,3.06,broken clouds
9,Punta Arenas,CL,-53.15,-70.9167,39.31,87,75,13.8,light rain
10,Tonj,SS,7.2737,28.6822,71.26,92,100,1.48,overcast clouds
11,Butaritari,KI,3.0707,172.7902,81.86,70,18,13.06,few clouds
12,Kapaa,US,22.0752,-159.319,80.58,84,0,8.05,clear sky
13,Tabuk,PH,17.4189,121.4443,87.06,65,74,1.86,broken clouds
14,Christchurch,NZ,-43.5333,172.6333,50.41,78,75,9.22,broken clouds
15,Hobart,AU,-42.8794,147.3294,59.25,66,75,11.5,broken clouds
16,Cayenne,GF,4.9333,-52.3333,75.24,94,0,0.0,clear sky
17,Plover,US,44.4564,-89.544,68.11,81,0,6.91,clear sky
18,Zyryanka,RU,65.75,150.85,45.1,46,69,2.75,broken clouds
19,Borogontsy,RU,62.6683,131.1683,50.34,64,100,9.33,light rain
20,San Quintin,MX,30.4833,-115.95,67.44,84,14,9.1,few clouds
21,Nikolskoye,RU,59.7035,30.7861,49.91,87,93,7.09,overcast clouds
22,Meulaboh,ID,4.1363,96.1285,84.38,65,86,5.7,overcast clouds
23,Oranjestad,AW,12.524,-70.027,83.62,77,97,16.91,overcast clouds
24,Vaini,TO,-21.2,-175.2,75.36,88,100,10.36,overcast clouds
25,Prosotsani,GR,41.1833,23.9667,73.49,52,18,1.57,few clouds
26,Sitka,US,57.0531,-135.33,51.69,76,0,5.75,clear sky
27,Rikitea,PF,-23.1203,-134.9692,72.54,74,0,16.8,clear sky
28,Hilo,US,19.7297,-155.09,78.28,88,20,3.44,few clouds
29,Puerto Ayora,EC,-0.7393,-90.3518,65.55,90,7,1.99,clear sky
30,Carnarvon,AU,-24.8667,113.6333,73.47,47,1,15.46,clear sky
31,Ribeira Grande,PT,38.5167,-28.7,70.2,88,20,4.61,few clouds
32,Nabire,ID,-3.3667,135.4833,73.85,96,100,4.92,overcast clouds
33,Chokurdakh,RU,70.6333,147.9167,38.61,60,95,3.36,overcast clouds
34,Fortuna,US,40.5982,-124.1573,55.92,88,34,2.82,scattered clouds
35,Khatanga,RU,71.9667,102.5,35.2,62,92,17.67,overcast clouds
36,Provideniya,RU,64.3833,-173.3,44.22,95,100,29.75,light rain
37,Belen,TR,36.4891,36.2233,68.14,88,0,5.75,clear sky
38,Hithadhoo,MV,-0.6,73.0833,81.61,72,61,5.32,broken clouds
39,Xuanhua,CN,40.6103,115.0447,82.71,21,21,7.27,few clouds
40,Antalaha,MG,-14.9003,50.2788,74.73,65,17,9.13,few clouds
41,Shadegan,IR,30.6497,48.6647,87.75,13,0,15.61,clear sky
42,Karatau,KZ,43.1667,70.4667,76.23,15,40,5.79,scattered clouds
43,Mahebourg,MU,-20.4081,57.7,76.24,69,75,17.27,broken clouds
44,Jamestown,US,42.097,-79.2353,61.72,77,75,1.01,fog
45,Georgetown,MY,5.4112,100.3354,89.53,66,20,8.05,few clouds
46,Pevek,RU,69.7008,170.3133,34.09,85,100,20.11,overcast clouds
47,Mar Del Plata,AR,-38.0023,-57.5575,57.09,90,0,20.0,clear sky
48,Arkhangelsk,RU,64.5401,40.5433,53.71,100,100,8.95,light intensity shower rain
49,Comodoro Rivadavia,AR,-45.8667,-67.5,42.66,65,0,8.05,clear sky
50,Pochutla,MX,15.7432,-96.4661,73.81,92,69,5.32,broken clouds
51,Bontang,ID,0.1333,117.5,82.45,78,100,8.37,overcast clouds
52,Hit,IQ,33.6416,42.8251,91.51,19,0,13.09,clear sky
53,Chuy,UY,-33.6971,-53.4616,53.62,89,6,6.93,clear sky
54,Hermanus,ZA,-34.4187,19.2345,54.81,76,92,4.36,light rain
55,New Norfolk,AU,-42.7826,147.0587,58.91,77,100,1.99,overcast clouds
56,San Patricio,US,28.017,-97.5169,84.88,74,18,8.37,few clouds
57,Castro,BR,-24.7911,-50.0119,47.44,90,81,9.42,broken clouds
58,Atuona,PF,-9.8,-139.0333,76.5,75,9,20.38,light rain
59,Great Falls,US,47.5002,-111.3008,57.42,73,0,9.22,clear sky
60,Saldanha,ZA,-33.0117,17.9442,53.65,84,93,9.6,overcast clouds
61,Kodiak,US,57.79,-152.4072,51.31,87,100,4.61,overcast clouds
62,Yopal,CO,5.3378,-72.3959,69.96,92,92,2.3,overcast clouds
63,Arraial Do Cabo,BR,-22.9661,-42.0278,65.46,76,99,14.16,overcast clouds
64,Bengkulu,ID,-3.8004,102.2655,82.98,73,73,7.05,broken clouds
65,Mataura,NZ,-46.1927,168.8643,46.47,72,65,2.8,broken clouds
66,Yellowknife,CA,62.456,-114.3525,46.92,100,20,6.91,few clouds
67,Port Alfred,ZA,-33.5906,26.891,60.19,88,100,1.99,overcast clouds
68,Bagotville,AU,-28.9833,153.4167,81.86,36,63,11.45,broken clouds
69,Linguere,SN,15.3953,-15.1193,80.82,94,0,2.3,clear sky
70,Pangnirtung,CA,66.1451,-65.7125,40.19,74,100,5.48,overcast clouds
71,Naze,JP,28.3667,129.4833,79.72,90,97,34.18,overcast clouds
72,Avera,US,33.194,-82.5271,63.91,73,0,5.75,clear sky
73,Cassilandia,BR,-19.1133,-51.7342,67.41,58,54,11.45,broken clouds
74,Itoman,JP,26.1247,127.6694,84.22,87,75,29.93,broken clouds
75,Pandan,PH,14.0453,124.1694,87.76,64,99,8.32,overcast clouds
76,Sakakah,SA,29.9697,40.2064,89.17,18,0,11.21,clear sky
77,Upernavik,GL,72.7868,-56.1549,33.73,75,4,13.33,clear sky
78,San Carlos,VE,9.6612,-68.5827,71.78,98,94,2.04,overcast clouds
79,Lagoa,PT,39.05,-27.9833,72.34,82,47,12.62,scattered clouds
80,Saint-Philippe,RE,-21.3585,55.7679,74.79,78,41,16.51,light rain
81,Tasiilaq,GL,65.6145,-37.6368,39.36,97,100,10.0,light rain
82,Pershotravneve,UA,51.3929,28.8684,54.66,77,89,7.38,light rain
83,Cape Town,ZA,-33.9258,18.4232,59.11,81,75,8.05,light rain
84,Kavieng,PG,-2.5744,150.7967,84.99,64,58,11.18,broken clouds
85,Buta,CD,2.7858,24.73,71.13,97,100,1.66,overcast clouds
86,Bluff,NZ,-46.6,168.3333,46.8,67,60,5.39,broken clouds
87,Souillac,MU,-20.5167,57.5167,75.58,69,75,17.27,broken clouds
88,Lebu,CL,-37.6167,-73.65,45.09,90,100,15.21,overcast clouds
89,La Ronge,CA,55.1001,-105.2842,55.65,71,75,5.75,broken clouds
90,Haines Junction,CA,60.7522,-137.5108,30.15,86,6,0.0,clear sky
91,Tunceli,TR,39.1083,39.5471,81.01,26,0,2.77,clear sky
92,Portland,US,45.5234,-122.6762,60.75,75,75,8.05,broken clouds
93,Victoria,HK,22.2855,114.1577,95.05,69,60,7.0,broken clouds
94,Nome,US,64.5011,-165.4064,50.07,82,100,41.43,light rain
95,Bilibino,RU,68.0546,166.4372,33.73,71,100,11.14,overcast clouds
96,Ushumun,RU,52.7833,126.5333,49.86,82,100,7.38,overcast clouds
97,Ancud,CL,-41.8697,-73.8203,37.22,79,41,6.02,scattered clouds
98,Egvekinot,RU,66.3167,-179.1667,38.66,88,100,19.64,light rain
99,Tuatapere,NZ,-46.1333,167.6833,48.67,72,100,5.59,overcast clouds
100,Puerto Carreno,CO,6.189,-67.4859,73.99,91,100,4.63,heavy intensity rain
101,Bandarbeyla,SO,9.4942,50.8122,83.97,59,53,26.26,broken clouds
102,Ponta Do Sol,PT,32.6667,-17.1,74.71,75,20,10.47,few clouds
103,Saquarema,BR,-22.92,-42.5103,64.47,81,100,8.86,overcast clouds
104,Black River,JM,18.0264,-77.8487,78.15,85,9,4.76,clear sky
105,Cherskiy,RU,68.75,161.3,36.52,70,98,16.91,overcast clouds
106,Mizan Teferi,ET,6.9833,35.5833,67.59,69,87,1.34,overcast clouds
107,Kruisfontein,ZA,-34.0033,24.7314,58.89,78,93,8.63,overcast clouds
108,Kuruman,ZA,-27.4524,23.4325,63.0,38,25,16.13,scattered clouds
109,Toropets,RU,56.4978,31.6353,48.58,78,60,9.93,broken clouds
110,Manama,BH,26.2154,50.5832,96.98,42,0,21.85,clear sky
111,Yanji,CN,42.9075,129.5078,73.13,77,97,1.81,overcast clouds
112,Bredasdorp,ZA,-34.5322,20.0403,56.1,83,86,3.13,overcast clouds
113,Norman Wells,CA,65.282,-126.8329,44.64,93,75,2.3,broken clouds
114,Iqaluit,CA,63.7506,-68.5145,38.93,80,75,2.3,broken clouds
115,Shimoda,JP,34.6667,138.95,82.76,83,100,12.64,overcast clouds
116,Barrow,US,71.2906,-156.7887,33.82,86,100,31.07,mist
117,Katangli,RU,51.7102,143.2326,54.66,70,98,9.51,overcast clouds
118,Sabaudia,IT,41.3003,13.0282,77.79,67,11,19.84,few clouds
119,Rio Tercero,AR,-32.173,-64.1141,56.44,46,100,6.67,overcast clouds
120,Mareeba,AU,-17.0,145.4333,87.44,46,1,9.82,clear sky
121,Hazorasp,UZ,41.3194,61.0742,76.84,31,8,7.7,clear sky
122,Vredendal,ZA,-31.6683,18.5012,56.16,87,79,2.53,broken clouds
123,Kedrovyy,RU,56.1667,91.8167,54.01,54,99,3.44,overcast clouds
124,Avarua,CK,-21.2078,-159.775,75.25,73,40,12.66,scattered clouds
125,Westport,US,41.1415,-73.3579,66.74,78,0,5.75,clear sky
126,Jinchang,CN,38.4953,102.1739,73.76,40,3,7.83,clear sky
127,West Bay,KY,19.3667,-81.4167,82.99,86,12,1.99,few clouds
128,Alofi,NU,-19.0595,-169.9187,75.09,83,0,3.44,clear sky
129,Rocha,UY,-34.4833,-54.3333,51.17,90,56,9.28,broken clouds
130,Perevolotskiy,RU,51.8763,54.1938,61.68,81,100,15.23,overcast clouds
131,Coihaique,CL,-45.5752,-72.0662,32.61,100,0,2.3,clear sky
132,Gat,IL,31.61,34.7642,82.4,100,2,7.49,clear sky
133,Port Hardy,CA,50.6996,-127.4199,50.0,100,75,2.3,broken clouds
134,Klaksvik,FO,62.2266,-6.589,47.32,74,100,7.99,overcast clouds
135,Yulara,AU,-25.2406,130.9889,76.42,13,0,4.5,clear sky
136,Vilcun,CL,-38.65,-72.2333,36.34,99,100,4.05,overcast clouds
137,Saskylakh,RU,71.9167,114.0833,34.18,98,100,22.17,snow
138,Nanortalik,GL,60.1432,-45.2371,46.78,88,100,7.72,moderate rain
139,Torbay,CA,47.6666,-52.7314,55.38,89,75,13.8,broken clouds
140,Clyde,US,41.3042,-82.9752,67.59,93,83,6.71,broken clouds
141,Carauari,BR,-4.8828,-66.8958,77.83,69,98,2.37,overcast clouds
142,Sibolga,ID,1.7427,98.7792,82.51,77,61,4.27,broken clouds
143,Novovarshavka,RU,54.1721,74.6946,61.34,36,16,9.42,few clouds
144,Sao Filipe,CV,14.8961,-24.4956,77.76,83,12,6.93,few clouds
145,Codrington,AU,-38.2667,141.9667,52.05,87,88,26.8,overcast clouds
146,San Carlos De Bariloche,AR,-41.1456,-71.3082,36.25,91,100,6.91,light snow
147,Gotsu,JP,35.0,132.2167,83.89,71,100,9.69,overcast clouds
148,Zhigansk,RU,66.7697,123.3711,38.89,60,71,17.47,broken clouds
149,Puerto Escondido,MX,15.85,-97.0667,78.44,87,99,15.23,overcast clouds
150,Sandwick,GB,60.0,-1.25,48.02,76,40,8.05,scattered clouds
151,Arman,RU,59.7,150.1667,55.02,45,16,2.59,few clouds
152,San Cristobal,VE,7.7669,-72.225,64.2,94,92,1.61,overcast clouds
153,Lazarev,RU,52.225,141.5131,56.3,54,52,9.89,broken clouds
154,Dikson,RU,73.5069,80.5464,36.5,77,94,14.36,overcast clouds
155,Namibe,AO,-15.1961,12.1522,67.12,84,45,1.79,scattered clouds
156,Buin,CL,-33.7333,-70.75,54.73,96,100,0.81,overcast clouds
157,Cabo San Lucas,MX,22.8909,-109.9124,84.51,72,6,1.99,clear sky
158,Hualmay,PE,-11.0964,-77.6139,60.87,88,43,9.6,scattered clouds
159,Kangaatsiaq,GL,68.3065,-53.4641,39.36,81,99,11.34,overcast clouds
160,Bilma,NE,18.6853,12.9164,89.29,35,94,6.96,overcast clouds
161,Tilichiki,RU,60.4667,166.1,44.91,61,82,16.15,broken clouds
162,Buriti,BR,-22.9302,-45.3881,56.82,94,98,2.77,overcast clouds
163,Shiyan,CN,32.6475,110.7781,83.7,48,93,1.83,overcast clouds
164,Swinoujscie,PL,53.9105,14.2471,54.18,92,32,18.63,scattered clouds
165,Ouegoa,NC,-20.35,164.4333,76.01,63,18,11.05,few clouds
166,Kawalu,ID,-7.3817,108.2082,82.24,69,91,6.96,overcast clouds
167,Sibu,MY,2.3,111.8167,91.71,52,40,3.44,light rain
168,Port-Cartier,CA,50.0334,-66.8654,46.08,67,71,13.2,broken clouds
169,Balikpapan,ID,-1.2675,116.8289,86.99,70,20,5.75,few clouds
170,Varzelandia,BR,-15.7014,-44.0275,70.27,37,2,5.19,clear sky
171,Beihai,CN,21.4833,109.1,86.77,67,5,9.51,clear sky
172,Constitucion,CL,-35.3333,-72.4167,53.17,94,100,8.12,moderate rain
173,Mahibadhoo,MV,3.7833,72.9667,81.64,69,3,5.28,clear sky
174,Boyolangu,ID,-8.1181,111.8935,84.11,61,51,10.31,broken clouds
175,Ballina,AU,-28.8667,153.5667,82.02,36,69,9.08,broken clouds
176,Burkburnett,US,34.0979,-98.5706,79.48,68,0,13.8,clear sky
177,Deniliquin,AU,-35.5333,144.9667,52.59,86,96,17.43,light rain
178,Port Elizabeth,ZA,-33.918,25.5701,61.32,80,0,9.22,clear sky
179,Khandyga,RU,62.6667,135.6,48.65,57,100,7.63,overcast clouds
180,Thompson,CA,55.7435,-97.8558,44.76,87,20,3.44,few clouds
181,Del Rio,US,29.3627,-100.8968,80.71,68,0,6.91,clear sky
182,Along,IN,28.1667,94.7667,82.17,82,97,1.36,overcast clouds
183,Atar,MR,20.5169,-13.0499,79.68,37,1,11.65,clear sky
184,Bonnyville,CA,54.2668,-110.735,55.2,94,100,5.55,overcast clouds
185,Kainantu,PG,-6.2887,145.8655,69.48,77,87,3.67,overcast clouds
186,General Roca,AR,-39.0333,-67.5833,46.62,59,100,19.89,overcast clouds
187,Gribanovskiy,RU,51.4579,41.9764,62.02,64,20,9.6,few clouds
188,Anloga,GH,5.7947,0.8973,76.46,85,100,10.18,overcast clouds
189,Bethel,US,41.3712,-73.414,61.63,85,75,0.0,broken clouds
190,Vyshkov,RU,52.4764,31.6873,56.73,62,100,9.95,overcast clouds
191,Longyearbyen,SJ,78.2186,15.6401,30.04,80,75,10.36,broken clouds
192,Nishihara,JP,26.1842,127.7558,83.48,89,75,29.93,broken clouds
193,Sokolo,ML,14.7328,-6.1219,77.77,71,17,7.02,few clouds
194,Wajima,JP,37.4,136.9,86.68,74,75,6.91,broken clouds
195,Villamontes,BO,-21.25,-63.5,62.31,51,0,5.01,clear sky
196,Stralsund,DE,54.3091,13.0818,55.02,87,34,9.31,scattered clouds
197,Linjiang,CN,41.8069,126.9078,73.78,78,73,5.12,broken clouds
198,Binghamton,US,42.0987,-75.918,60.91,83,100,3.44,overcast clouds
199,Srivardhan,IN,18.0333,73.0167,82.17,79,97,11.16,overcast clouds
200,Oga,IT,46.4631,10.347,45.28,81,97,10.65,overcast clouds
201,Broome,US,42.2506,-75.833,59.67,88,100,3.44,overcast clouds
202,Moron,AR,-34.6534,-58.6198,62.96,78,100,10.47,overcast clouds
203,Valday,RU,57.9747,33.2525,45.93,92,100,9.69,overcast clouds
204,Alta Floresta,BR,-9.8756,-56.0861,76.37,58,79,3.0,broken clouds
205,Tuktoyaktuk,CA,69.4541,-133.0374,38.71,85,100,6.38,light rain
206,Hamilton,US,39.1834,-84.5333,67.57,90,0,4.61,mist
207,Diu,IN,20.7141,70.9822,84.61,68,93,12.03,overcast clouds
208,East London,ZA,-33.0153,27.9116,66.18,68,66,9.35,broken clouds
209,Te Anau,NZ,-45.4167,167.7167,41.36,92,97,2.24,overcast clouds
210,Porosozero,RU,62.7191,32.727,49.37,88,100,3.94,overcast clouds
211,Anadyr,RU,64.75,177.4833,43.3,86,100,26.84,light rain
212,Hovd,MN,48.0056,91.6419,51.13,46,80,8.9,broken clouds
213,Amberley,US,39.2048,-84.428,66.88,90,0,1.01,mist
214,Cortez,US,37.3489,-108.5859,53.69,58,75,4.61,broken clouds
215,Kenai,US,60.5544,-151.2583,51.1,93,100,12.66,overcast clouds
216,Mastic Beach,US,40.7668,-72.8521,65.98,72,0,3.44,clear sky
217,Flagstaff,US,35.1981,-111.6513,60.46,74,0,1.01,clear sky
218,Los Llanos De Aridane,ES,28.6585,-17.9182,69.55,82,0,10.36,clear sky
219,Loandjili,CG,-4.7561,11.8578,71.71,100,75,2.3,mist
220,Aswan,EG,24.0934,32.907,88.43,23,1,12.17,clear sky
221,Port Moresby,PG,-9.4431,147.1797,85.42,74,40,2.26,haze
222,Port Macquarie,AU,-31.4333,152.9167,69.46,50,17,9.08,few clouds
223,Cantaura,VE,9.3057,-64.3584,72.64,92,100,2.75,overcast clouds
224,Mehamn,NO,71.0357,27.8492,46.31,100,100,19.57,drizzle rain
225,Miraflores,MX,19.2167,-98.8083,60.98,94,99,2.35,overcast clouds
226,Kattivakkam,IN,13.2167,80.3167,93.29,55,100,7.63,overcast clouds
227,Gympie,AU,-26.1898,152.665,82.42,39,84,8.39,broken clouds
228,Sisimiut,GL,66.9395,-53.6735,45.01,78,100,7.61,overcast clouds
229,Tiksi,RU,71.6872,128.8694,36.05,99,100,5.53,light rain
230,Fort Nelson,CA,58.8053,-122.7002,54.99,50,100,5.75,overcast clouds
231,Luderitz,NA,-26.6481,15.1594,64.04,62,49,13.96,scattered clouds
232,Redlands,US,34.0556,-117.1825,71.51,78,0,5.75,clear sky
233,Gushikawa,JP,26.3544,127.8686,83.43,94,75,21.85,broken clouds
234,Serenje,ZM,-13.2325,30.2352,73.67,34,42,10.27,scattered clouds
235,Axim,GH,4.8699,-2.2405,75.13,92,100,4.56,light rain
236,Brae,GB,60.3964,-1.353,49.39,72,100,19.06,overcast clouds
237,Vila Velha,BR,-20.3297,-40.2925,64.35,97,100,17.0,mist
238,Quatre Cocos,MU,-20.2078,57.7625,76.08,71,9,17.65,light rain
239,Billings,US,45.7833,-108.5007,56.97,89,75,10.36,broken clouds
240,Lompoc,US,34.6391,-120.4579,58.57,95,100,13.8,overcast clouds
241,Emerald,AU,-23.5333,148.1667,80.35,44,9,13.51,clear sky
242,Krasnoselkup,RU,65.7,82.4667,47.37,93,100,8.14,light rain
243,Narsaq,GL,60.9167,-46.05,57.42,61,100,15.57,overcast clouds
244,Deputatskiy,RU,69.3,139.9,34.65,77,100,3.65,overcast clouds
245,Lasa,IT,46.6166,10.7002,52.68,84,100,9.46,overcast clouds
246,Vestmannaeyjar,IS,63.4427,-20.2734,48.42,81,99,7.65,overcast clouds
247,Kaitangata,NZ,-46.2817,169.8464,44.96,79,100,2.82,overcast clouds
248,Muzhi,RU,65.3667,64.6667,54.84,57,100,11.12,overcast clouds
249,Dongsheng,CN,39.8161,109.9776,74.82,19,0,7.09,clear sky
250,Terney,RU,45.0503,136.6092,57.16,98,100,7.54,overcast clouds
251,Tooele,US,40.5308,-112.2983,59.97,49,21,5.77,few clouds
252,Vanimo,PG,-2.6741,141.3028,85.08,66,83,6.85,broken clouds
253,Csemo,HU,47.118,19.6909,55.56,85,100,7.63,light rain
254,Ambilobe,MG,-13.2,49.05,88.65,29,0,9.89,clear sky
255,Tagusao,PH,9.1924,117.8141,85.33,70,100,11.99,overcast clouds
256,Garowe,SO,8.4054,48.4845,87.15,40,11,22.7,few clouds
257,Berlevag,NO,70.8578,29.0864,46.35,93,100,26.46,light rain
258,Kamenka,RU,51.3223,42.7678,63.23,64,38,10.47,scattered clouds
259,Luanda,AO,-8.8368,13.2343,69.8,94,40,3.44,scattered clouds
260,Pangody,RU,65.85,74.4859,57.56,52,100,15.57,overcast clouds
261,Kailua,US,21.4022,-157.7394,80.15,92,63,7.65,broken clouds
262,Goba,ET,7.0167,39.9833,61.23,57,13,4.85,few clouds
263,Dubti,ET,11.7361,41.0853,94.24,31,10,15.12,clear sky
264,Lerwick,GB,60.1545,-1.1494,48.2,73,100,17.85,light rain
265,Batagay-Alyta,RU,67.8006,130.4114,41.41,44,2,23.98,clear sky
266,Leningradskiy,RU,69.3833,178.4167,35.51,99,100,14.14,light rain
267,Grand Gaube,MU,-20.0064,57.6608,76.37,65,1,11.99,clear sky
268,Port Lincoln,AU,-34.7333,135.8667,56.41,72,100,21.47,overcast clouds
269,Kununurra,AU,-15.7667,128.7333,100.38,9,87,5.75,overcast clouds
270,Waipawa,NZ,-41.4122,175.5153,46.18,84,72,4.36,broken clouds
271,Zharkent,KZ,44.1628,80.0,75.51,17,11,5.08,few clouds
272,Beringovskiy,RU,63.05,179.3167,44.71,92,100,24.92,moderate rain
273,Kostino,RU,58.9097,53.2691,56.32,63,100,8.81,overcast clouds
274,Centralia,US,46.7162,-122.9543,53.44,92,79,1.32,broken clouds
275,Russell,US,32.3502,-85.1999,70.83,78,2,5.08,clear sky
276,Faanui,PF,-16.4833,-151.75,77.54,75,98,21.99,light rain
277,Alyangula,AU,-13.8483,136.4192,83.37,65,12,8.72,few clouds
278,Najran,SA,17.4924,44.1277,88.45,22,88,1.83,overcast clouds
279,Marau,BR,-28.4492,-52.2,49.17,94,3,7.9,clear sky
280,Bonthe,SL,7.5264,-12.505,76.48,87,24,2.44,few clouds
281,Vilyuysk,RU,63.7553,121.6247,46.02,50,92,10.29,overcast clouds
282,Wadi Musa,JO,30.3222,35.4793,78.58,32,0,8.61,clear sky
283,Male,MV,4.1748,73.5089,81.72,69,0,5.73,clear sky
284,Olafsvik,IS,64.8945,-23.7142,47.55,79,100,5.48,overcast clouds
285,Coquimbo,CL,-29.9533,-71.3436,53.33,87,100,4.61,overcast clouds
286,Caborca,MX,30.5838,-111.101,76.12,39,0,0.63,clear sky
287,Srandakan,ID,-7.9386,110.2506,81.57,71,100,15.12,overcast clouds
288,Pisco,PE,-13.7,-76.2167,57.25,88,20,2.3,smoke
289,Marzuq,YE,14.4,46.4667,88.29,23,100,7.78,overcast clouds
290,Luorong,CN,24.4058,109.6086,94.68,44,46,1.52,scattered clouds
291,Komsomolskiy,UZ,40.4272,71.7189,77.72,27,5,4.61,clear sky
292,Severo-Yeniseyskiy,RU,60.3725,93.0408,46.65,84,100,6.76,light rain
293,Kota Kinabalu,MY,5.9749,116.0724,91.38,66,20,3.44,few clouds
294,Raudeberg,NO,61.9875,5.1352,48.96,1,100,31.76,overcast clouds
295,Sarkand,KZ,45.41,79.9186,68.5,17,37,7.81,scattered clouds
296,Dunedin,NZ,-45.8742,170.5036,49.8,70,100,6.22,overcast clouds
297,Cockburn Town,TC,21.4612,-71.1419,83.16,78,98,19.17,overcast clouds
298,Costinesti,RO,43.95,28.6333,73.44,65,11,5.01,few clouds
299,Sola,VU,-13.8833,167.55,81.23,74,5,18.99,clear sky
300,Vao,NC,-22.6667,167.4833,71.26,72,28,19.69,scattered clouds
301,Talnakh,RU,69.4865,88.3972,40.21,70,100,6.71,overcast clouds
302,Gao,ML,16.6362,1.637,83.61,58,100,17.74,overcast clouds
303,Tyret Pervaya,RU,53.6703,102.3106,53.92,42,96,8.14,overcast clouds
304,Recodo,PH,6.9519,121.9636,86.11,67,98,5.79,overcast clouds
305,The Pas,CA,53.8251,-101.2541,42.82,87,0,2.3,clear sky
306,Adeje,ES,28.1227,-16.726,74.28,77,20,4.61,few clouds
307,Key West,US,24.5557,-81.7826,87.8,83,0,10.36,clear sky
308,Dayong,CN,25.0209,118.2898,91.33,46,15,7.78,few clouds
309,Borovskoy,KZ,53.8,64.15,65.55,24,29,15.37,scattered clouds
310,Ocampo,MX,21.65,-101.5,54.09,89,100,8.32,overcast clouds
311,Kjollefjord,NO,70.9457,27.3465,46.45,100,100,21.85,light rain
312,Atamanovka,RU,51.93,113.63,46.83,85,100,14.9,light rain
313,Katherine,AU,-14.4667,132.2667,102.52,18,84,5.75,broken clouds
314,Wladyslawowo,PL,54.7909,18.4009,53.15,84,46,15.93,scattered clouds
315,Nizhneivkino,RU,58.194,49.5214,52.59,81,100,10.29,overcast clouds
316,San Matias,BO,-16.3667,-58.4,73.04,48,95,2.68,overcast clouds
317,Luena,AO,-11.7833,19.9167,76.24,25,17,7.31,few clouds
318,Vila Franca Do Campo,PT,37.7167,-25.4333,70.21,92,44,5.91,scattered clouds
319,Coahuayana,MX,18.7333,-103.6833,76.15,95,100,3.11,overcast clouds
320,Hamirpur,IN,25.95,80.15,89.33,59,92,7.56,overcast clouds
321,Guerrero Negro,MX,27.9769,-114.0611,68.38,83,0,14.0,clear sky
322,Pimenta Bueno,BR,-11.6725,-61.1936,75.2,52,19,2.95,few clouds
323,Mtwango,TZ,-9.0167,34.8,63.03,59,85,10.22,overcast clouds
324,Honiara,SB,-9.4333,159.95,80.65,83,31,2.3,scattered clouds
325,Ormara,PK,25.2088,64.6357,80.8,76,4,10.18,clear sky
326,Catia La Mar,VE,10.6038,-67.0303,81.5,83,40,0.0,scattered clouds
327,Katsuura,JP,35.1333,140.3,81.39,74,100,10.58,overcast clouds
328,Santa Maria,BR,-29.6842,-53.8069,52.9,94,0,5.75,clear sky
329,Yarim,YE,14.298,44.3779,66.47,34,92,1.66,overcast clouds
330,Thinadhoo,MV,0.5333,72.9333,81.73,67,86,4.36,overcast clouds
331,Severo-Kurilsk,RU,50.6789,156.125,51.22,79,16,14.94,few clouds
332,Banda Aceh,ID,5.5577,95.3222,86.76,64,69,18.3,broken clouds
333,Seoul,KR,37.5683,126.9778,87.19,68,75,5.75,broken clouds
334,Cap-Aux-Meules,CA,47.3821,-61.8597,53.62,71,100,24.16,overcast clouds
335,Clyde River,CA,70.4692,-68.5914,35.83,100,100,16.11,mist
336,Pahrump,US,36.2083,-115.9839,77.25,23,0,5.68,clear sky
337,Ciudad Bolivar,VE,8.1222,-63.5497,75.61,88,98,1.66,overcast clouds
338,Shelburne,CA,44.0787,-80.2041,59.23,99,100,7.23,overcast clouds
339,Ca Mau,VN,9.1769,105.15,88.07,60,84,13.58,broken clouds
340,Verkhoyansk,RU,67.5447,133.385,51.57,36,15,21.34,few clouds
341,Ust-Ishim,RU,57.6935,71.1665,60.85,40,14,10.96,few clouds
342,Champerico,GT,14.3,-91.9167,75.72,90,100,6.93,overcast clouds
343,Nagato,JP,34.3833,131.2,84.96,69,96,7.16,overcast clouds
344,Alice Springs,AU,-23.7,133.8833,76.55,20,0,8.05,clear sky
345,Mayumba,GA,-3.432,10.6554,74.34,85,99,2.59,overcast clouds
346,Ivanivka,UA,46.7208,34.553,73.24,51,34,9.8,scattered clouds
347,Vyazemskiy,RU,47.5378,134.7525,56.41,98,100,7.87,moderate rain
348,Adrar,MR,20.5022,-10.0711,78.78,33,0,12.57,clear sky
349,Carlagan,PH,14.975,122.0456,87.04,64,100,6.64,overcast clouds
350,Boca Do Acre,BR,-8.7522,-67.3978,72.75,62,24,1.74,few clouds
351,Puri,IN,19.8,85.85,91.92,66,100,9.73,overcast clouds
352,Kulu,TR,39.0951,33.0799,81.64,26,0,4.41,clear sky
353,Siguiri,GN,11.6667,-9.5,72.27,94,44,1.92,light rain
354,Barabinsk,RU,55.3571,78.357,58.06,49,100,4.25,overcast clouds
355,Maravilha,BR,-26.7608,-53.1725,48.22,92,0,5.77,clear sky
356,Saint-Pierre,RE,-21.3393,55.4781,74.88,73,0,26.46,clear sky
357,Korla,CN,41.7597,86.1469,81.36,14,5,1.39,clear sky
358,Montale,IT,43.9356,11.0171,73.09,86,100,5.99,overcast clouds
359,Hurghada,EG,27.2574,33.8129,86.04,37,0,13.8,clear sky
360,Akyab,MM,20.15,92.9,84.43,74,49,8.14,scattered clouds
361,Murray,US,40.6669,-111.888,62.64,70,0,4.61,clear sky
362,Sampit,ID,-2.5333,112.95,90.88,53,99,4.88,overcast clouds
363,Guasdualito,VE,7.2424,-70.7324,71.29,98,100,2.68,overcast clouds
364,Zatyshshya,UA,47.3335,29.8733,66.22,80,100,9.19,overcast clouds
365,Loukhi,RU,66.0764,33.0381,48.51,97,100,11.83,light rain
366,Kapuskasing,CA,49.4169,-82.4331,48.29,93,100,4.61,overcast clouds
367,Puerto Colombia,CO,10.9878,-74.9547,80.71,79,100,2.86,overcast clouds
368,Qaqortoq,GL,60.7167,-46.0333,50.68,67,100,9.53,overcast clouds
369,Kushima,JP,31.4583,131.2333,81.23,93,100,20.65,light rain
370,Adelaide,AU,-34.9333,138.6,59.11,76,40,20.71,light rain
371,Lumeje,AO,-11.55,20.7833,78.49,23,89,9.37,overcast clouds
372,Bojnurd,IR,37.4747,57.329,71.55,40,0,2.3,clear sky
373,Mariental,NA,-24.6333,17.9667,72.82,24,73,13.2,broken clouds
374,Byron Bay,AU,-28.65,153.6167,73.4,54,3,9.24,clear sky
375,Goderich,CA,43.7501,-81.7165,64.72,88,90,8.05,overcast clouds
376,Nelson Bay,AU,-32.7167,152.15,71.65,52,7,10.0,clear sky
377,Seguela,CI,7.9611,-6.6731,70.68,98,100,5.39,overcast clouds
378,Yatou,CN,37.15,122.3833,74.1,70,0,9.26,clear sky
379,Moree,AU,-29.4667,149.85,67.28,46,6,14.25,clear sky
380,Puerto Leguizamo,CO,-0.1934,-74.7819,68.02,99,71,1.99,broken clouds
381,Evanston,US,42.0411,-87.6901,71.94,80,75,6.91,broken clouds
382,Srisailam,IN,16.0833,78.8667,83.64,64,87,12.03,overcast clouds
383,Youghal,IE,51.95,-7.8506,49.55,76,12,4.99,few clouds
384,Cua,VE,10.1589,-66.8858,79.11,95,50,2.1,scattered clouds
385,Sao Joao Da Barra,BR,-21.6403,-41.0511,63.5,86,100,10.65,overcast clouds
386,Dzhebariki-Khaya,RU,62.2167,135.8,49.15,57,79,9.37,broken clouds
387,Ierapetra,GR,35.01,25.7353,76.14,68,0,3.0,clear sky
388,Laje,BR,-10.1833,-40.9667,63.16,85,6,3.89,clear sky
389,Mount Gambier,AU,-37.8333,140.7667,55.31,76,75,29.93,broken clouds
390,Inuvik,CA,68.3499,-133.7218,40.21,100,100,3.44,mist
391,Kavaratti,IN,10.5669,72.642,80.92,78,62,11.36,broken clouds
392,Alpena,US,45.0617,-83.4327,67.1,97,75,8.05,broken clouds
393,Okhotsk,RU,59.3833,143.3,53.1,51,0,4.12,clear sky
394,Karratha,AU,-20.7377,116.8463,84.11,24,14,11.43,few clouds
395,Moroni,KM,-11.7022,43.2551,77.0,69,20,6.91,few clouds
396,Isangel,VU,-19.55,169.2667,78.91,73,40,9.22,scattered clouds
397,Mildura,AU,-34.2,142.15,62.08,72,75,17.27,broken clouds
398,Bambous Virieux,MU,-20.3428,57.7575,76.21,69,75,17.27,light rain
399,Timra,SE,62.487,17.3257,53.67,87,20,11.5,few clouds
400,Neuruppin,DE,52.9282,12.8031,54.99,86,100,11.9,overcast clouds
401,Flinders,AU,-34.5833,150.8552,66.06,49,14,14.97,few clouds
402,Miles City,US,46.4083,-105.8406,63.57,67,100,11.5,light rain
403,Balkhash,KZ,46.844,74.9804,61.41,27,0,17.9,clear sky
404,Yangjiang,CN,21.85,111.9667,89.51,60,5,7.29,clear sky
405,Vitina,BA,43.2375,17.4839,71.42,90,35,3.65,scattered clouds
406,Kibala,TD,9.1104,18.3463,75.15,94,40,4.61,scattered clouds
407,Ippy,CF,6.2679,21.2247,74.41,91,100,2.33,moderate rain
408,Dwarka,IN,22.2394,68.9678,81.61,74,100,15.9,overcast clouds
409,Wuwei,CN,37.9281,102.6414,74.86,44,31,4.65,scattered clouds
410,Mandan,US,46.8267,-100.8896,57.18,94,100,4.61,overcast clouds
411,Novikovo,RU,51.1537,37.8879,61.9,60,6,6.49,clear sky
412,Saint-Augustin,CA,51.226,-58.6502,47.59,71,100,20.45,overcast clouds
413,Knysna,ZA,-34.0363,23.0471,63.61,71,40,6.4,scattered clouds
414,Tornio,FI,65.8481,24.1466,48.22,92,100,16.53,overcast clouds
415,Paamiut,GL,61.994,-49.6678,46.81,100,100,4.03,moderate rain
416,Iroquois Falls,CA,48.7669,-80.6831,43.09,79,100,4.97,overcast clouds
417,Samarai,PG,-10.6167,150.6667,83.52,76,58,12.3,broken clouds
418,Kon Tum,VN,14.35,108.0,83.01,71,45,3.13,scattered clouds
419,Mahajanga,MG,-15.7167,46.3167,82.42,39,0,13.8,clear sky
420,Kaeng Khoi,TH,14.5862,100.9976,90.88,63,100,9.8,overcast clouds
421,Tyn Nad Vltavou,CZ,49.2234,14.4206,49.01,75,100,11.99,overcast clouds
422,Port Keats,AU,-14.25,129.55,86.43,55,100,12.55,overcast clouds
423,Kuleshovka,RU,47.078,39.5579,68.94,67,99,4.99,overcast clouds
424,Patnongon,PH,10.9132,121.9937,83.71,69,58,7.23,light rain
425,Ryotsu,JP,38.0833,138.4333,80.56,64,100,4.36,overcast clouds
426,Liyang,CN,29.7057,118.2862,86.36,48,72,3.0,broken clouds
427,Cabedelo,BR,-6.9811,-34.8339,72.27,85,1,10.47,clear sky
428,Nizhniy Ingash,RU,56.2,96.53,55.72,44,85,4.0,overcast clouds
429,Bambanglipuro,ID,-7.95,110.2833,81.86,70,100,15.52,overcast clouds
430,Nurota,UZ,40.5614,65.6886,83.01,12,100,11.21,overcast clouds
431,Glossop,GB,53.4432,-1.949,46.0,86,10,3.13,clear sky
432,Victor Harbor,AU,-35.5667,138.6167,57.99,72,64,1.01,broken clouds
433,Aklavik,CA,68.2191,-135.0107,36.82,95,52,6.96,broken clouds
434,Port Blair,IN,11.6667,92.75,82.44,83,100,13.8,light rain
435,Oranjemund,NA,-28.55,16.4333,57.76,81,7,13.98,clear sky
436,Puerto Padre,CU,21.195,-76.6028,78.69,86,10,6.96,clear sky
437,Baruun-Urt,MN,46.6806,113.2792,59.81,32,43,21.3,scattered clouds
438,Konotop,UA,51.2403,33.2026,56.97,68,100,7.83,overcast clouds
439,Roxana,CR,10.2753,-83.7513,78.03,96,100,2.77,overcast clouds
440,Jasper,US,37.2001,-94.3502,73.99,61,0,9.22,clear sky
441,Filadelfia,US,39.9523,-75.1638,65.7,80,100,1.99,overcast clouds
442,Bustamante,MX,26.5333,-100.5,76.71,71,0,8.68,clear sky
443,Sabha,LY,27.0377,14.4283,85.86,16,0,8.86,clear sky
444,Lavrentiya,RU,65.5833,-171.0,43.81,93,100,33.67,light rain
445,Chicama,PE,-7.8447,-79.1469,57.74,84,98,6.55,overcast clouds
446,Asau,RO,46.4333,26.4,61.72,76,89,2.73,overcast clouds
447,Talara,PE,-4.5772,-81.2719,64.8,86,11,11.79,few clouds
448,Namatanai,PG,-3.6667,152.4333,83.17,68,95,10.78,overcast clouds
449,College,US,64.8569,-147.8028,54.28,73,75,0.0,broken clouds
450,Zverinogolovskoye,RU,54.4586,64.8542,66.04,23,3,15.55,clear sky
451,Kinshasa,CD,-4.3246,15.3215,71.98,83,75,4.61,broken clouds
452,Dingle,PH,10.9995,122.6711,85.1,74,73,13.38,broken clouds
453,Nachalovo,RU,46.338,48.2013,75.13,78,40,11.18,scattered clouds
454,Verkh-Chebula,RU,56.0308,87.6218,55.44,47,94,5.3,overcast clouds
455,Ilulissat,GL,69.2167,-51.1,35.62,93,40,8.05,scattered clouds
456,Laguna,US,38.421,-121.4238,69.46,68,0,6.91,clear sky
457,Zakamensk,RU,50.3741,103.2863,53.6,35,94,2.86,overcast clouds
458,Fort-Shevchenko,KZ,44.5086,50.263,75.07,52,18,18.57,few clouds
459,Morant Bay,JM,17.8815,-76.4093,83.82,82,8,8.03,clear sky
460,Kuah,MY,6.3265,99.8432,84.18,84,40,4.61,scattered clouds
461,Ratnagiri,IN,16.9833,73.3,81.73,82,80,11.97,broken clouds
462,Uchiza,PE,-8.4592,-76.4633,66.96,89,12,1.99,few clouds
463,Tommot,RU,58.9564,126.2925,54.28,46,100,3.15,overcast clouds
464,Ambulu,ID,-8.345,113.6058,85.23,59,100,10.67,overcast clouds
465,Newport,GB,51.5877,-2.9984,48.52,78,13,6.76,few clouds
466,Kashi,CN,39.4547,75.9797,76.21,31,75,11.18,dust
467,Tena,EC,-0.9833,-77.8167,66.79,93,97,2.55,overcast clouds
468,Baykit,RU,61.67,96.37,52.3,48,27,7.38,scattered clouds
469,Arroio Grande,BR,-32.2375,-53.0869,52.74,95,27,7.02,scattered clouds
470,Saint George,US,37.1041,-113.5841,73.99,48,20,4.0,few clouds
471,Vaitape,PF,-16.5167,-151.75,78.01,75,76,22.37,light rain
472,Ambunti,PG,-4.2365,142.8448,83.82,70,35,1.95,scattered clouds
473,Evensk,RU,61.95,159.2333,43.99,47,74,15.48,broken clouds
474,Ayia Marina,GR,37.75,23.5333,82.74,70,0,8.61,clear sky
475,Miguel Hidalgo,MX,19.4225,-99.2028,61.52,77,75,8.05,broken clouds
476,Abaza,RU,52.655,90.0928,51.51,59,100,4.16,overcast clouds
477,Laiyang,CN,36.9758,120.7136,80.44,60,5,5.23,clear sky
478,De-Kastri,RU,51.4667,140.7833,55.49,76,100,3.06,light rain
479,Tezu,IN,27.9167,96.1667,85.84,78,58,4.88,light rain
480,Kilindoni,TZ,-7.9139,39.6668,76.46,70,31,6.11,scattered clouds
481,Geraldton,AU,-28.7667,114.6,72.01,56,40,11.5,scattered clouds
482,Hasaki,JP,35.7333,140.8333,84.6,73,100,10.51,overcast clouds
483,Bartica,GY,6.4,-58.6167,79.12,97,100,1.32,overcast clouds
484,Ranfurly,NZ,-45.1333,170.1,50.11,72,99,2.21,overcast clouds
485,Tessalit,ML,20.1986,1.0114,88.23,36,100,9.33,overcast clouds
486,Kudahuvadhoo,MV,2.6708,72.8944,81.68,65,71,4.74,broken clouds
487,Thanatpin,MM,17.2119,96.3033,86.18,81,99,9.89,overcast clouds
488,Bintulu,MY,3.1667,113.0333,84.61,74,20,0.0,light rain
489,Ranau,MY,5.9538,116.6641,80.24,74,100,0.43,overcast clouds
490,Salekhard,RU,66.53,66.6019,54.64,57,100,10.02,overcast clouds
491,Rio Gallegos,AR,-51.6226,-69.2181,41.05,52,75,16.11,broken clouds
492,Callaway,US,30.153,-85.5699,76.93,87,0,5.75,clear sky
493,Cordoba,AR,-31.4135,-64.1811,64.76,26,0,13.8,clear sky
494,Broken Hill,AU,-31.95,141.4333,59.29,44,88,23.35,overcast clouds
495,Necochea,AR,-38.5473,-58.7368,55.33,81,100,15.64,overcast clouds
496,Micheweni,TZ,-4.9667,39.8333,79.38,64,100,8.32,overcast clouds
497,Juneau,US,58.3019,-134.4197,50.22,97,20,0.0,few clouds
498,Dedza,MW,-14.3779,34.3332,65.82,46,7,8.9,clear sky
499,Boende,CD,-0.2167,20.8667,72.3,97,100,1.63,light rain
500,Panguna,PG,-6.3164,155.4848,74.01,84,100,1.21,overcast clouds
501,Paka,MY,4.6374,103.4368,87.73,70,40,9.22,scattered clouds
502,Leshukonskoye,RU,64.8989,45.7622,54.73,86,100,9.01,overcast clouds
503,Prado,BR,-17.3411,-39.2208,68.85,90,8,3.22,clear sky
504,Kuusamo,FI,65.9667,29.1833,48.24,100,100,11.5,light rain
505,Wanning,CN,18.8003,110.3967,87.31,62,30,7.36,scattered clouds
506,Alappuzha,IN,9.49,76.3264,89.01,75,100,9.51,overcast clouds
507,Morros,BR,-9.4467,-46.3003,79.21,37,81,3.74,broken clouds
508,Tolentino,IT,43.2126,13.2901,71.47,68,22,3.78,few clouds
509,Phalaborwa,ZA,-23.943,31.1411,76.28,22,0,7.18,clear sky
510,Dohar,BD,23.5883,90.1469,87.78,57,40,6.44,scattered clouds
511,Grindavik,IS,63.8424,-22.4338,46.87,87,75,3.44,broken clouds
512,Juegang,CN,32.3174,121.1855,83.98,81,29,10.69,scattered clouds
513,Bhum,IN,18.4667,75.6667,81.27,64,100,11.07,overcast clouds
514,Salto,UY,-31.3833,-57.9667,61.88,77,25,15.01,scattered clouds
515,Uaua,BR,-9.8414,-39.4817,64.2,85,5,7.7,clear sky
516,Papara,BR,-3.9839,-38.7273,77.68,93,78,4.47,broken clouds
517,Faya,SA,18.3851,42.4509,75.31,30,13,5.03,few clouds
518,Igrim,RU,63.1906,64.4162,59.95,43,99,9.64,overcast clouds
519,Ahipara,NZ,-35.1667,173.1667,51.49,69,100,4.0,overcast clouds
520,Japura,ID,-0.3167,102.35,90.55,54,90,2.82,overcast clouds
521,Salalah,OM,17.0151,54.0924,84.29,70,75,4.61,broken clouds
522,Astana,KZ,51.1801,71.446,58.95,29,0,15.66,clear sky
523,Kiruna,SE,67.8557,20.2251,40.12,100,100,10.36,overcast clouds
524,Nouadhibou,MR,20.931,-17.0347,71.58,83,3,21.85,clear sky
525,Glowno,PL,51.9646,19.7157,50.11,87,100,13.73,overcast clouds
526,Praia,CV,14.9215,-23.5087,77.54,88,20,12.66,few clouds
527,Barra Do Corda,BR,-5.5,-45.25,72.12,89,58,4.7,broken clouds
528,Kismayo,SO,-0.3582,42.5454,80.46,66,11,14.83,few clouds
529,Voyinka,UA,45.8699,33.9914,76.33,57,41,10.47,scattered clouds
530,Kandiari,PK,26.9156,68.5216,96.17,36,2,10.02,clear sky
531,Bud,US,39.447,-86.1758,66.22,93,96,4.05,overcast clouds
532,Derzhavinsk,KZ,51.1,66.3167,66.81,19,7,11.01,clear sky
533,Kahului,US,20.8947,-156.47,80.62,72,0,11.5,clear sky
534,Waingapu,ID,-9.6567,120.2641,87.55,50,32,12.55,scattered clouds
535,Road Town,VG,18.4167,-64.6167,77.09,78,100,30.8,overcast clouds
536,Bulgan,MN,48.8125,103.5347,49.12,53,76,0.76,broken clouds
537,Barra Do Garcas,BR,-15.89,-52.2567,75.78,69,0,4.61,clear sky
538,Manadhoo,MV,5.7667,73.3833,81.54,70,38,6.73,scattered clouds
539,Eisenberg,DE,50.9667,11.9,51.21,90,99,15.52,overcast clouds
540,Baoding,CN,38.8511,115.4903,89.06,36,54,5.68,broken clouds
541,Highland Park,US,42.1817,-87.8003,71.69,85,0,5.75,clear sky
542,Yerbabuena,MX,20.9667,-101.2667,56.84,88,88,8.79,overcast clouds
543,Rawson,AR,-43.3002,-65.1023,43.93,83,67,11.77,broken clouds
544,Chapais,CA,49.7834,-74.8492,40.78,83,0,3.74,clear sky
545,Ostrovnoy,RU,68.0531,39.5131,50.43,92,100,11.7,overcast clouds
546,Saryozek,KZ,44.3583,77.9753,70.81,15,98,10.31,overcast clouds
547,Tual,ID,-5.6667,132.75,81.28,72,100,0.89,light rain
548,Gewane,ET,10.1664,40.6453,90.14,34,7,12.77,clear sky
549,Ahuimanu,US,21.4447,-157.8378,79.86,88,75,0.0,broken clouds
550,Talakan,RU,50.3167,130.3667,63.88,76,100,5.93,moderate rain
551,Shenzhen,CN,22.5455,114.0683,93.15,85,83,8.66,broken clouds
552,Olivenza,ES,38.6832,-7.103,63.46,64,11,3.06,few clouds
553,Hofn,IS,64.2539,-15.2082,47.17,66,78,4.74,broken clouds
554,Garoua,CM,9.3,13.4,72.82,95,100,4.68,light rain
555,Mpulungu,ZM,-8.7623,31.1141,82.67,37,23,1.74,few clouds
556,Mangan,IN,27.5167,88.5333,83.91,78,85,5.86,overcast clouds
557,Ust-Tarka,RU,55.5672,75.705,60.98,39,97,6.31,overcast clouds
558,Harper,LR,4.375,-7.7169,76.51,85,100,8.9,overcast clouds
559,Pindi Gheb,PK,33.2402,72.2661,94.1,39,0,5.06,clear sky
560,Ellsworth,US,44.5434,-68.4195,50.65,76,0,3.44,clear sky
561,Dekar,BW,-21.5333,21.9333,75.22,14,0,9.13,clear sky
562,Manggar,ID,-2.8833,108.2667,80.1,80,100,4.21,overcast clouds
563,The Valley,AI,18.217,-63.0578,82.09,83,100,34.2,overcast clouds
564,Paita,PE,-5.0892,-81.1144,63.61,86,9,8.37,clear sky
565,Canyon,US,34.9803,-101.9188,75.69,60,5,18.75,clear sky
566,Iranshahr,IR,27.2025,60.6848,98.94,25,0,4.61,clear sky
567,Hambantota,LK,6.1241,81.1185,91.74,58,20,11.5,few clouds
568,Yeppoon,AU,-23.1333,150.7333,71.24,90,97,7.74,overcast clouds
569,Pittsfield,US,42.4501,-73.2454,51.66,86,20,0.0,few clouds
570,Sogne,NO,58.0833,7.8167,55.26,72,8,4.0,clear sky
571,Hryshkivtsi,UA,49.9353,28.6038,56.08,78,100,6.15,overcast clouds
572,Progreso,MX,21.2833,-89.6667,75.31,88,100,8.28,overcast clouds
573,Camacha,PT,33.0833,-16.3333,71.02,88,75,16.11,broken clouds
574,Indramayu,ID,-6.3264,108.32,85.93,62,71,10.85,broken clouds
575,Chunskiy,RU,56.0815,99.6342,55.27,43,94,6.67,overcast clouds
576,Benghazi,LY,32.1167,20.0667,78.48,51,0,6.06,clear sky
577,Fare,PF,-16.7,-151.0167,78.22,69,100,20.15,overcast clouds
578,Leninskoye,KZ,41.7589,69.3864,85.32,10,66,7.29,broken clouds
579,Shenjiamen,CN,29.9576,122.298,78.73,79,8,15.05,clear sky
580,Siena,IT,43.2167,11.4,67.51,84,1,3.62,clear sky
581,Balas,PH,15.0335,120.6059,87.24,74,75,4.61,broken clouds
582,Tautira,PF,-17.7333,-149.15,77.13,66,0,22.55,clear sky
583,Kuching,MY,1.55,110.3333,82.62,89,75,5.75,broken clouds
584,Acajutla,SV,13.5928,-89.8275,76.98,88,100,6.29,moderate rain
585,Tocopilla,CL,-22.092,-70.1979,57.04,65,0,1.41,clear sky
586,Campo Bom,BR,-29.6789,-51.0533,58.24,88,0,2.51,clear sky
587,Barcelos,PT,41.5388,-8.6151,69.91,80,77,4.32,broken clouds
588,Kibray,UZ,41.3873,69.4641,81.12,9,100,7.2,overcast clouds
589,Nenjiang,CN,49.1833,125.2167,64.02,63,81,7.02,broken clouds
590,Airai,TL,-8.9266,125.4092,78.3,30,100,3.24,overcast clouds
591,Basco,PH,20.4487,121.9702,83.32,72,97,17.54,overcast clouds
592,Berdigestyakh,RU,62.0989,126.6992,42.89,92,100,7.9,light rain
593,Aktash,RU,50.3,87.7333,44.06,39,55,1.99,broken clouds
594,Shepsi,RU,44.0361,39.1489,78.15,55,97,3.65,overcast clouds
595,Kaseda,JP,31.4167,130.3167,82.42,81,99,22.03,light rain
596,Saint Anthony,US,45.0205,-93.218,67.89,92,0,8.05,clear sky
597,San Vicente,AR,-26.6167,-54.1333,51.64,81,5,4.21,clear sky
598,Obidos,BR,-1.9175,-55.5181,76.8,72,70,4.32,broken clouds
599,Nizwa,OM,22.9333,57.5333,105.06,10,2,5.23,clear sky
600,Lima,PE,-12.0432,-77.0282,57.9,87,100,10.36,overcast clouds
601,Swift Current,CA,50.2834,-107.8014,54.41,76,100,4.61,overcast clouds
602,Sur,OM,22.5667,59.5289,94.77,43,6,4.52,clear sky
603,Kisangani,CD,0.5167,25.2,76.23,75,100,2.68,overcast clouds
604,Manitouwadge,CA,49.1215,-85.8403,51.26,99,100,8.25,moderate rain
605,Kuybysheve,UA,47.358,36.6491,68.2,60,34,5.95,scattered clouds
606,Santa Ines,BR,-3.6667,-45.38,70.12,97,30,3.0,scattered clouds
607,Kambove,CD,-10.8764,26.5969,74.71,32,18,7.65,few clouds
608,Mega,ET,4.05,38.3,65.35,57,40,16.93,scattered clouds
609,Touros,BR,-5.1989,-35.4608,71.29,89,2,10.27,clear sky
610,Chumikan,RU,54.7183,135.315,53.92,62,28,11.54,scattered clouds
611,Sturgeon Bay,US,44.8342,-87.377,66.56,94,0,8.05,clear sky
612,Tambura,SS,5.6,27.4667,69.44,95,100,2.04,overcast clouds
613,Manokwari,ID,-0.8667,134.0833,79.93,76,100,6.93,overcast clouds
614,Yuli,NG,9.6989,10.2744,72.77,93,100,3.56,light rain
615,Umea,SE,63.8284,20.2597,49.93,100,100,11.5,overcast clouds
616,Teguldet,RU,57.3064,88.1667,57.85,53,21,2.95,few clouds
617,Independence,US,39.0911,-94.4155,74.95,66,0,12.66,clear sky
618,Nuevo Laredo,MX,27.4763,-99.5164,80.87,78,0,13.8,clear sky
619,Upington,ZA,-28.4478,21.2561,70.18,35,100,12.66,overcast clouds
620,Saint-Louis,SN,16.3333,-15.0,80.24,75,100,11.92,overcast clouds
621,Camopi,GF,3.1655,-52.3158,70.72,99,46,2.59,scattered clouds
622,Marsa Matruh,EG,31.3525,27.2453,75.4,60,20,8.05,few clouds
623,Karlshamn,SE,56.1706,14.8619,48.69,84,18,7.29,few clouds
624,Sulangan,PH,11.1373,123.7228,84.83,70,98,6.42,overcast clouds
625,Andenes,NO,69.3143,16.1194,49.98,81,0,17.27,clear sky
626,Sorland,NO,67.667,12.6934,53.46,76,0,13.8,clear sky
627,Soyo,AO,-6.1349,12.3689,74.66,82,63,7.49,broken clouds
628,Gaoual,GN,11.75,-13.2,73.81,96,100,4.74,overcast clouds
629,Fairview,US,40.8126,-73.999,69.06,63,75,8.05,broken clouds
630,Timmins,CA,48.4669,-81.3331,48.02,93,100,3.44,overcast clouds
631,Srednekolymsk,RU,67.45,153.6833,38.26,63,100,7.25,overcast clouds
632,Baherden,TM,38.4362,57.4316,82.85,20,1,6.24,clear sky
633,Cuauhtemoc,MX,28.4167,-106.8667,59.68,63,0,1.72,clear sky
634,Abha,SA,18.2164,42.5053,75.02,25,40,0.0,scattered clouds
635,Mitsamiouli,KM,-11.3847,43.2844,77.29,69,20,6.91,few clouds
636,Lata,PT,40.1629,-8.3327,65.07,84,96,2.64,overcast clouds
637,Luba,GQ,3.4568,8.5547,76.89,88,99,4.99,light rain
638,Churapcha,RU,62.0025,132.4325,51.44,57,100,10.6,overcast clouds
639,San Juan,AR,-31.5375,-68.5364,62.01,26,100,4.85,overcast clouds
640,Mandera,KE,3.9366,41.867,85.39,39,85,16.87,overcast clouds
641,Sikasso,ML,10.9167,-7.0,73.26,91,97,4.0,overcast clouds
642,Burnie,AU,-41.0667,145.9167,50.92,93,100,13.13,light rain
643,Nalut,LY,30.3333,10.85,84.92,14,0,8.05,clear sky
644,Rjukan,NO,59.8789,8.5941,49.44,74,57,8.19,broken clouds
645,Anamur,TR,36.0751,32.8369,85.35,50,0,5.59,clear sky
646,Santa Rosa De Aguan,HN,15.95,-85.7167,81.18,78,80,11.03,broken clouds
647,Zapolyarnyy,RU,69.4154,30.8136,47.48,98,100,8.03,overcast clouds
648,Anan,JP,33.9167,134.65,76.78,86,100,13.0,light rain
649,Povorino,RU,51.1945,42.2457,63.16,64,23,9.55,few clouds
650,Lesnoye,RU,58.2841,35.5158,47.39,90,100,7.45,overcast clouds
651,Dhidhdhoo,MV,6.8833,73.1,81.36,74,10,8.57,clear sky
652,Innisfail,AU,-17.5333,146.0333,78.48,74,0,6.04,clear sky
653,Half Moon Bay,US,37.4636,-122.4286,60.91,83,100,20.71,overcast clouds
654,Walvis Bay,NA,-22.9575,14.5053,56.35,94,99,4.61,overcast clouds
655,Poum,NC,-20.2333,164.0167,75.7,67,1,12.8,clear sky
656,Adana,TR,36.985,35.2881,84.72,65,0,2.3,clear sky
657,Sao Goncalo Do Amarante,BR,-3.6072,-38.9683,79.12,84,67,6.53,broken clouds
658,Terra Roxa,BR,-23.8557,-50.0314,50.95,81,0,9.46,clear sky
659,Harqalah,TN,36.0303,10.509,78.66,73,20,8.05,few clouds
660,Vysokogornyy,RU,50.1167,139.15,57.04,78,100,7.54,light rain
661,Bolivar,US,37.6145,-93.4105,72.59,70,0,13.35,clear sky
662,Samfya,ZM,-11.3649,29.5565,73.99,42,11,7.99,few clouds
663,Kuybyshevo,RU,47.8123,38.9073,69.67,61,10,6.26,clear sky
664,Mayna,RU,54.1135,47.6231,55.58,95,100,9.71,overcast clouds
665,Kemijarvi,FI,66.7131,27.4306,47.14,96,100,12.44,light rain
666,Acari,PE,-15.4311,-74.6158,62.89,76,70,2.59,broken clouds
667,Nsunga,TZ,-1.1439,31.3947,78.13,50,74,1.5,broken clouds
668,Sinnamary,GF,5.3833,-52.95,78.17,88,32,9.69,scattered clouds
669,Zhezkazgan,KZ,47.8043,67.7144,64.38,25,0,13.42,clear sky
670,Gizo,SB,-8.103,156.8419,83.82,68,14,6.13,few clouds
671,Mari-Turek,RU,56.7895,49.6235,59.43,69,100,12.3,overcast clouds
672,Chatham,GB,51.3789,0.5279,48.85,76,0,7.0,clear sky
673,Yumen,CN,40.2833,97.2,78.37,17,10,12.21,clear sky
674,Godfrey,US,38.9556,-90.1868,72.5,88,0,0.0,clear sky
675,Becej,RS,45.6163,20.0333,56.37,91,100,10.56,overcast clouds
676,Hay River,CA,60.8156,-115.7999,55.38,82,75,9.22,broken clouds
677,Tadine,NC,-21.55,167.8833,72.12,65,75,10.8,broken clouds
678,Chardara,KZ,41.2547,67.9692,81.32,21,100,5.5,overcast clouds
679,Port-Gentil,GA,-0.7193,8.7815,78.76,78,100,10.36,overcast clouds
680,Presidencia Roque Saenz Pena,AR,-26.7852,-60.4388,54.48,48,6,7.65,clear sky
681,Khadyzhensk,RU,44.4256,39.5319,83.68,34,94,5.73,overcast clouds
682,Camalu,MX,30.85,-116.0667,66.38,86,13,4.61,few clouds
683,Stepnyak,KZ,52.8339,70.7803,58.5,30,4,14.25,clear sky
684,Kamina,CD,-8.7386,24.9906,83.46,26,17,4.29,few clouds
685,Mbini,GQ,1.574,9.6134,75.04,85,99,9.66,overcast clouds
686,Zhangye,CN,38.9342,100.4517,79.95,25,15,3.2,few clouds
687,Dharchula,IN,29.85,80.5333,80.26,69,98,5.48,overcast clouds
688,Pedasi,PA,7.5333,-80.0333,78.06,84,100,5.79,overcast clouds
689,Yerbogachen,RU,61.2767,108.0108,43.09,56,100,12.57,overcast clouds
690,Manoel Urbano,BR,-8.8389,-69.2597,69.55,72,16,1.72,few clouds
691,Dallas,US,32.7668,-96.7836,80.49,78,0,13.8,clear sky
692,Vardo,NO,70.3705,31.1107,48.18,93,100,24.16,light rain
